{"version": "1.1", "result": {"stops": [{"stopId": 13200, "point": {"lat": 47.63189, "lon": -122.307246}, "abbr": "13200", "name": "19th Ave E & E Galer St <SB, FS>", "ivrNum": "13200"}, {"stopId": 13210, "point": {"lat": 47.630432, "lon": -122.307261}, "abbr": "13210", "name": "19th Ave E & E Highland Dr <SB, FS>", "ivrNum": "13210"}, {"stopId": 13220, "point": {"lat": 47.628487, "lon": -122.307287}, "abbr": "13220", "name": "19th Ave E & E Prospect St <SB, FS>", "ivrNum": "13220"}, {"stopId": 13230, "point": {"lat": 47.626642, "lon": -122.307316}, "abbr": "13230", "name": "19th Ave E & E Aloha St <SB, FS>", "ivrNum": "13230"}, {"stopId": 13240, "point": {"lat": 47.624193, "lon": -122.307299}, "abbr": "13240", "name": "19th Ave E & E Mercer St <SB, FS>", "ivrNum": "13240"}, {"stopId": 13250, "point": {"lat": 47.621896, "lon": -122.307342}, "abbr": "13250", "name": "19th Ave E & E Harrison St <SB, FS>", "ivrNum": "13250"}, {"stopId": 13260, "point": {"lat": 47.619452, "lon": -122.307382}, "abbr": "13260", "name": "19th Ave E & E John St <SB, FS>", "ivrNum": "13260"}, {"stopId": 13270, "point": {"lat": 47.618257, "lon": -122.307402}, "abbr": "13270", "name": "19th Ave & E Denny Way <SB, FS>", "ivrNum": "13270"}, {"stopId": 12353, "point": {"lat": 47.616558, "lon": -122.30784}, "abbr": "12353", "name": "E Madison St & 19th Ave <WB, FS>", "ivrNum": "12353"}, {"stopId": 12354, "point": {"lat": 47.615457, "lon": -122.310476}, "abbr": "12354", "name": "E Madison St & 17th Ave <WB, FS>", "ivrNum": "12354"}, {"stopId": 12355, "point": {"lat": 47.614295, "lon": -122.313264}, "abbr": "12355", "name": "E Madison St & 15th Ave <WB, FS>", "ivrNum": "12355"}, {"stopId": 13277, "point": {"lat": 47.613059, "lon": -122.316231}, "abbr": "13277", "name": "E Madison St & 13th Ave <WB, FS>", "ivrNum": "13277"}, {"stopId": 13282, "point": {"lat": 47.611568, "lon": -122.319811}, "abbr": "13282", "name": "E Madison St & Broadway Ct <WB, NS>", "ivrNum": "13282"}, {"stopId": 13283, "point": {"lat": 47.610365, "lon": -122.322688}, "abbr": "13283", "name": "Madison St & Summit Ave <WB, NS>", "ivrNum": "13283"}, {"stopId": 13284, "point": {"lat": 47.609146, "lon": -122.325594}, "abbr": "13284", "name": "Madison St & Boren Ave <WB, FS>", "ivrNum": "13284"}, {"stopId": 13285, "point": {"lat": 47.608269, "lon": -122.327699}, "abbr": "13285", "name": "Madison St & 9th Ave <WB, FS>", "ivrNum": "13285"}, {"stopId": 1400, "point": {"lat": 47.606575, "lon": -122.33174}, "abbr": "1400", "name": "Madison St & 5th Ave <WB, NS>", "ivrNum": "1400"}, {"stopId": 1415, "point": {"lat": 47.605918, "lon": -122.333321}, "abbr": "1415", "name": "Madison St & 4th Ave <WB, FS>", "ivrNum": "1415"}, {"stopId": 1420, "point": {"lat": 47.605263, "lon": -122.334886}, "abbr": "1420", "name": "Madison St & 2nd Ave <WB, NS>", "ivrNum": "1420"}], "lineTraces": {"patternTraces": [{"Color": "#000000", "Points": [{"lat": 47.63189, "lon": -122.307246}, {"lat": 47.625231, "lon": -122.30733}, {"lat": 47.624417, "lon": -122.307296}, {"lat": 47.616731, "lon": -122.307423}, {"lat": 47.613059, "lon": -122.316231}, {"lat": 47.612922, "lon": -122.316566}, {"lat": 47.612873, "lon": -122.316794}, {"lat": 47.612747, "lon": -122.316979}, {"lat": 47.605263, "lon": -122.334886}], "zoom": {"lonWest": -122.335, "latNorth": 47.6319, "lonCenter": -122.321, "latCenter": 47.6186, "latSouth": 47.6053, "lonEast": -122.307}}, {"Color": "#000000", "Points": [{"lat": 47.63189, "lon": -122.307246}, {"lat": 47.625231, "lon": -122.30733}, {"lat": 47.624417, "lon": -122.307296}, {"lat": 47.616731, "lon": -122.307423}, {"lat": 47.613059, "lon": -122.316231}, {"lat": 47.612922, "lon": -122.316566}, {"lat": 47.612873, "lon": -122.316794}, {"lat": 47.612747, "lon": -122.316979}, {"lat": 47.611568, "lon": -122.319811}], "zoom": {"lonWest": -122.335, "latNorth": 47.6319, "lonCenter": -122.321, "latCenter": 47.6186, "latSouth": 47.6053, "lonEast": -122.307}}], "zoom": {"lonWest": -122.335, "latNorth": 47.6319, "lonCenter": -122.321, "latCenter": 47.6186, "latSouth": 47.6053, "lonEast": -122.307}}}}